{
"type": "FeatureCollection",
"crs": { "type": "name", "properties": { "name": "urn:ogc:def:crs:OGC:1.3:CRS84" } },
"features": [
{ "type": "Feature", "properties": { "District": "Bagerhat", "Latitude": 22.6516, "Longitude": 89.7852, "Count": 14 }, "geometry": { "type": "Point", "coordinates": [ 89.7852, 22.6516 ] } },
{ "type": "Feature", "properties": { "District": "Bandarban", "Latitude": 22.1953, "Longitude": 92.218, "Count": 9 }, "geometry": { "type": "Point", "coordinates": [ 92.218, 22.1953 ] } },
{ "type": "Feature", "properties": { "District": "Barguna", "Latitude": 22.0953, "Longitude": 90.1121, "Count": 6 }, "geometry": { "type": "Point", "coordinates": [ 90.1121, 22.0953 ] } },
{ "type": "Feature", "properties": { "District": "Barisal", "Latitude": 22.701, "Longitude": 90.3535, "Count": 22 }, "geometry": { "type": "Point", "coordinates": [ 90.3535, 22.701 ] } },
{ "type": "Feature", "properties": { "District": "Bhola", "Latitude": 22.6854, "Longitude": 90.6487, "Count": 10 }, "geometry": { "type": "Point", "coordinates": [ 90.6487, 22.6854 ] } },
{ "type": "Feature", "properties": { "District": "Bogura", "Latitude": 24.8465, "Longitude": 89.3774, "Count": 24 }, "geometry": { "type": "Point", "coordinates": [ 89.3774, 24.8465 ] } },
{ "type": "Feature", "properties": { "District": "Brahmanbaria", "Latitude": 23.9571, "Longitude": 91.1119, "Count": 52 }, "geometry": { "type": "Point", "coordinates": [ 91.1119, 23.9571 ] } },
{ "type": "Feature", "properties": { "District": "Chandpur", "Latitude": 23.2251, "Longitude": 90.6645, "Count": 12 }, "geometry": { "type": "Point", "coordinates": [ 90.6645, 23.2251 ] } },
{ "type": "Feature", "properties": { "District": "Chapai Nawabganj", "Latitude": 24.7413, "Longitude": 88.2912, "Count": 17 }, "geometry": { "type": "Point", "coordinates": [ 88.2912, 24.7413 ] } },
{ "type": "Feature", "properties": { "District": "Chittagong", "Latitude": 22.3569, "Longitude": 91.7832, "Count": 157 }, "geometry": { "type": "Point", "coordinates": [ 91.7832, 22.3569 ] } },
{ "type": "Feature", "properties": { "District": "Chuadanga", "Latitude": 23.6425, "Longitude": 88.8458, "Count": 4 }, "geometry": { "type": "Point", "coordinates": [ 88.8458, 23.6425 ] } },
{ "type": "Feature", "properties": { "District": "Comilla", "Latitude": 23.468, "Longitude": 91.1784, "Count": 131 }, "geometry": { "type": "Point", "coordinates": [ 91.1784, 23.468 ] } },
{ "type": "Feature", "properties": { "District": "Cox's Bazar", "Latitude": 21.4272, "Longitude": 92.0058, "Count": 9 }, "geometry": { "type": "Point", "coordinates": [ 92.0058, 21.4272 ] } },
{ "type": "Feature", "properties": { "District": "Dhaka", "Latitude": 23.8103, "Longitude": 90.4125, "Count": 356 }, "geometry": { "type": "Point", "coordinates": [ 90.4125, 23.8103 ] } },
{ "type": "Feature", "properties": { "District": "Dinajpur", "Latitude": 25.6217, "Longitude": 88.6356, "Count": 23 }, "geometry": { "type": "Point", "coordinates": [ 88.6356, 25.6217 ] } },
{ "type": "Feature", "properties": { "District": "Faridpur", "Latitude": 23.6071, "Longitude": 89.8404, "Count": 9 }, "geometry": { "type": "Point", "coordinates": [ 89.8404, 23.6071 ] } },
{ "type": "Feature", "properties": { "District": "Feni", "Latitude": 23.0238, "Longitude": 91.3849, "Count": 12 }, "geometry": { "type": "Point", "coordinates": [ 91.3849, 23.0238 ] } },
{ "type": "Feature", "properties": { "District": "Gaibandha", "Latitude": 25.3276, "Longitude": 89.5286, "Count": 4 }, "geometry": { "type": "Point", "coordinates": [ 89.5286, 25.3276 ] } },
{ "type": "Feature", "properties": { "District": "Gazipur", "Latitude": 23.9924, "Longitude": 90.4196, "Count": 82 }, "geometry": { "type": "Point", "coordinates": [ 90.4196, 23.9924 ] } },
{ "type": "Feature", "properties": { "District": "Gopalganj", "Latitude": 23.0059, "Longitude": 89.8268, "Count": 9 }, "geometry": { "type": "Point", "coordinates": [ 89.8268, 23.0059 ] } },
{ "type": "Feature", "properties": { "District": "Habiganj", "Latitude": 24.3745, "Longitude": 91.415, "Count": 20 }, "geometry": { "type": "Point", "coordinates": [ 91.415, 24.3745 ] } },
{ "type": "Feature", "properties": { "District": "Jamalpur", "Latitude": 24.9375, "Longitude": 89.9374, "Count": 18 }, "geometry": { "type": "Point", "coordinates": [ 89.9374, 24.9375 ] } },
{ "type": "Feature", "properties": { "District": "Jashore", "Latitude": 23.1664, "Longitude": 89.2131, "Count": 17 }, "geometry": { "type": "Point", "coordinates": [ 89.2131, 23.1664 ] } },
{ "type": "Feature", "properties": { "District": "Jhalokathi", "Latitude": 22.6469, "Longitude": 90.1982, "Count": 4 }, "geometry": { "type": "Point", "coordinates": [ 90.1982, 22.6469 ] } },
{ "type": "Feature", "properties": { "District": "Jhenaidah", "Latitude": 23.5448, "Longitude": 89.1539, "Count": 6 }, "geometry": { "type": "Point", "coordinates": [ 89.1539, 23.5448 ] } },
{ "type": "Feature", "properties": { "District": "Joypurhat", "Latitude": 25.0961, "Longitude": 89.0227, "Count": 2 }, "geometry": { "type": "Point", "coordinates": [ 89.0227, 25.0961 ] } },
{ "type": "Feature", "properties": { "District": "Khagrachari", "Latitude": 23.1193, "Longitude": 91.9847, "Count": 11 }, "geometry": { "type": "Point", "coordinates": [ 91.9847, 23.1193 ] } },
{ "type": "Feature", "properties": { "District": "Khulna", "Latitude": 22.8456, "Longitude": 89.5403, "Count": 21 }, "geometry": { "type": "Point", "coordinates": [ 89.5403, 22.8456 ] } },
{ "type": "Feature", "properties": { "District": "Kishoreganj", "Latitude": 24.4438, "Longitude": 90.7764, "Count": 34 }, "geometry": { "type": "Point", "coordinates": [ 90.7764, 24.4438 ] } },
{ "type": "Feature", "properties": { "District": "Kurigram", "Latitude": 25.8022, "Longitude": 89.6375, "Count": 13 }, "geometry": { "type": "Point", "coordinates": [ 89.6375, 25.8022 ] } },
{ "type": "Feature", "properties": { "District": "Kushtia", "Latitude": 23.9019, "Longitude": 89.1206, "Count": 11 }, "geometry": { "type": "Point", "coordinates": [ 89.1206, 23.9019 ] } },
{ "type": "Feature", "properties": { "District": "Lakshmipur", "Latitude": 22.9425, "Longitude": 90.841, "Count": 20 }, "geometry": { "type": "Point", "coordinates": [ 90.841, 22.9425 ] } },
{ "type": "Feature", "properties": { "District": "Lalmonirhat", "Latitude": 25.9163, "Longitude": 89.4452, "Count": 21 }, "geometry": { "type": "Point", "coordinates": [ 89.4452, 25.9163 ] } },
{ "type": "Feature", "properties": { "District": "Madaripur", "Latitude": 23.1641, "Longitude": 90.1896, "Count": 10 }, "geometry": { "type": "Point", "coordinates": [ 90.1896, 23.1641 ] } },
{ "type": "Feature", "properties": { "District": "Magura", "Latitude": 23.4873, "Longitude": 89.4194, "Count": 6 }, "geometry": { "type": "Point", "coordinates": [ 89.4194, 23.4873 ] } },
{ "type": "Feature", "properties": { "District": "Manikganj", "Latitude": 23.8587, "Longitude": 90.0006, "Count": 12 }, "geometry": { "type": "Point", "coordinates": [ 90.0006, 23.8587 ] } },
{ "type": "Feature", "properties": { "District": "Meherpur", "Latitude": 23.7625, "Longitude": 88.6318, "Count": 3 }, "geometry": { "type": "Point", "coordinates": [ 88.6318, 23.7625 ] } },
{ "type": "Feature", "properties": { "District": "Moulvibazar", "Latitude": 24.482, "Longitude": 91.7727, "Count": 2 }, "geometry": { "type": "Point", "coordinates": [ 91.7727, 24.482 ] } },
{ "type": "Feature", "properties": { "District": "Munshiganj", "Latitude": 23.5565, "Longitude": 90.5309, "Count": 34 }, "geometry": { "type": "Point", "coordinates": [ 90.5309, 23.5565 ] } },
{ "type": "Feature", "properties": { "District": "Mymensingh", "Latitude": 24.7464, "Longitude": 90.4074, "Count": 64 }, "geometry": { "type": "Point", "coordinates": [ 90.4074, 24.7464 ] } },
{ "type": "Feature", "properties": { "District": "Naogaon", "Latitude": 24.7936, "Longitude": 88.9514, "Count": 7 }, "geometry": { "type": "Point", "coordinates": [ 88.9514, 24.7936 ] } },
{ "type": "Feature", "properties": { "District": "Narail", "Latitude": 23.1723, "Longitude": 89.5133, "Count": 10 }, "geometry": { "type": "Point", "coordinates": [ 89.5133, 23.1723 ] } },
{ "type": "Feature", "properties": { "District": "Narayanganj", "Latitude": 23.6337, "Longitude": 90.4969, "Count": 78 }, "geometry": { "type": "Point", "coordinates": [ 90.4969, 23.6337 ] } },
{ "type": "Feature", "properties": { "District": "Narsingdi", "Latitude": 23.9204, "Longitude": 90.7178, "Count": 39 }, "geometry": { "type": "Point", "coordinates": [ 90.7178, 23.9204 ] } },
{ "type": "Feature", "properties": { "District": "Natore", "Latitude": 24.4212, "Longitude": 89.0014, "Count": 11 }, "geometry": { "type": "Point", "coordinates": [ 89.0014, 24.4212 ] } },
{ "type": "Feature", "properties": { "District": "Netrokona", "Latitude": 24.8706, "Longitude": 90.7279, "Count": 15 }, "geometry": { "type": "Point", "coordinates": [ 90.7279, 24.8706 ] } },
{ "type": "Feature", "properties": { "District": "Nilphamari", "Latitude": 25.932, "Longitude": 88.8564, "Count": 14 }, "geometry": { "type": "Point", "coordinates": [ 88.8564, 25.932 ] } },
{ "type": "Feature", "properties": { "District": "Noakhali", "Latitude": 22.8697, "Longitude": 91.0998, "Count": 45 }, "geometry": { "type": "Point", "coordinates": [ 91.0998, 22.8697 ] } },
{ "type": "Feature", "properties": { "District": "Pabna", "Latitude": 23.9985, "Longitude": 89.2337, "Count": 10 }, "geometry": { "type": "Point", "coordinates": [ 89.2337, 23.9985 ] } },
{ "type": "Feature", "properties": { "District": "Panchagarh", "Latitude": 26.3411, "Longitude": 88.5667, "Count": 8 }, "geometry": { "type": "Point", "coordinates": [ 88.5667, 26.3411 ] } },
{ "type": "Feature", "properties": { "District": "Patuakhali", "Latitude": 22.3596, "Longitude": 90.3299, "Count": 5 }, "geometry": { "type": "Point", "coordinates": [ 90.3299, 22.3596 ] } },
{ "type": "Feature", "properties": { "District": "Pirojpur", "Latitude": 22.5848, "Longitude": 89.9714, "Count": 1 }, "geometry": { "type": "Point", "coordinates": [ 89.9714, 22.5848 ] } },
{ "type": "Feature", "properties": { "District": "Rajbari", "Latitude": 23.7574, "Longitude": 89.6445, "Count": 2 }, "geometry": { "type": "Point", "coordinates": [ 89.6445, 23.7574 ] } },
{ "type": "Feature", "properties": { "District": "Rajshahi", "Latitude": 24.3636, "Longitude": 88.6241, "Count": 24 }, "geometry": { "type": "Point", "coordinates": [ 88.6241, 24.3636 ] } },
{ "type": "Feature", "properties": { "District": "Rangamati", "Latitude": 22.7324, "Longitude": 92.2985, "Count": 6 }, "geometry": { "type": "Point", "coordinates": [ 92.2985, 22.7324 ] } },
{ "type": "Feature", "properties": { "District": "Rangpur", "Latitude": 25.7439, "Longitude": 89.2752, "Count": 27 }, "geometry": { "type": "Point", "coordinates": [ 89.2752, 25.7439 ] } },
{ "type": "Feature", "properties": { "District": "Satkhira", "Latitude": 22.7185, "Longitude": 89.0705, "Count": 10 }, "geometry": { "type": "Point", "coordinates": [ 89.0705, 22.7185 ] } },
{ "type": "Feature", "properties": { "District": "Shariatpur", "Latitude": 23.2423, "Longitude": 90.4346, "Count": 11 }, "geometry": { "type": "Point", "coordinates": [ 90.4346, 23.2423 ] } },
{ "type": "Feature", "properties": { "District": "Sherpur", "Latitude": 25.0189, "Longitude": 90.0153, "Count": 6 }, "geometry": { "type": "Point", "coordinates": [ 90.0153, 25.0189 ] } },
{ "type": "Feature", "properties": { "District": "Sirajganj", "Latitude": 24.4521, "Longitude": 89.9204, "Count": 23 }, "geometry": { "type": "Point", "coordinates": [ 89.9204, 24.4521 ] } },
{ "type": "Feature", "properties": { "District": "Sunamganj", "Latitude": 25.066, "Longitude": 91.397, "Count": 14 }, "geometry": { "type": "Point", "coordinates": [ 91.397, 25.066 ] } },
{ "type": "Feature", "properties": { "District": "Sylhet", "Latitude": 24.8898, "Longitude": 91.8697, "Count": 57 }, "geometry": { "type": "Point", "coordinates": [ 91.8697, 24.8898 ] } },
{ "type": "Feature", "properties": { "District": "Tangail", "Latitude": 24.3963, "Longitude": 89.967, "Count": 39 }, "geometry": { "type": "Point", "coordinates": [ 89.967, 24.3963 ] } },
{ "type": "Feature", "properties": { "District": "Thakurgaon", "Latitude": 26.033, "Longitude": 88.4614, "Count": 2 }, "geometry": { "type": "Point", "coordinates": [ 88.4614, 26.033 ] } }
]
}
